street,zip_code,city,state,county,latitude,longitude,use_code,tax_assessment_year,tax_assessment,year_built,lot_size_sqft,finished_sqft,bathroom,bedrooms,last_sold_date,last_sold_price,region_id,region_type,region_name
17 Earl St,7114,Newark,NJ,Essex,40.719466,-74.188382,MultiFamily5Plus,2016,174258,1900,2613,1250,1,4,11/14/16,60500,275415,neighborhood,South Broad Street
33 Mount Vernon Pl,7106,Newark,NJ,Essex,40.735994,-74.238542,SingleFamily,2015,146132,1927,3484,1384,NA,3,11/17/16,136000,12970,city,Newark
583 N 7th St,7107,Newark,NJ,Essex,40.770022,-74.181825,Condominium,2015,219904,1902,2500,2601,NA,NA,9/21/16,340000,275830,neighborhood,Upper Roseville
192 Littleton Ave,7103,Newark,NJ,Essex,40.74051,-74.19517,MultiFamily2To4,2015,208062,1930,2613,2325,2,4,4/15/16,299670,273684,neighborhood,Fairmuont
319 Lake St,7104,Newark,NJ,Essex,40.761653,-74.178108,MultiFamily2To4,2016,272883,2005,3484,2964,6,9,10/31/05,558000,275335,neighborhood,Seventh Avenue
378 Lafayette St,7105,Newark,NJ,Essex,40.7262,-74.156017,MultiFamily5Plus,2015,277597,1895,NA,2984,1,2,9/30/16,330000,274724,neighborhood,North Ironbound
799 S 13th St,7108,Newark,NJ,Essex,40.72617,-74.209311,SingleFamily,2015,162972,1910,3049,NA,1,3,12/21/16,127000,276619,neighborhood,Upper Clinton Hill
291 W Runyon St,7108,Newark,NJ,Essex,40.719593,-74.208527,MultiFamily2To4,2015,189157,1900,3484,1760,2,3,9/27/16,60000,276619,neighborhood,Upper Clinton Hill
27 Schalk St,7105,Newark,NJ,Essex,40.73275,-74.140442,SingleFamily,2015,165798,1887,2500,1278,NA,NA,8/22/16,180000,274724,neighborhood,North Ironbound
106 S 10th St,7107,Newark,NJ,Essex,40.749456,-74.195872,MultiFamily2To4,2015,112886,1902,2052,1631,2,6,4/6/17,40000,273684,neighborhood,Fairmuont
84 W Kinney St,7102,Newark,NJ,Essex,40.729812,-74.180295,Apartment,2015,66710,2016,3001,1600,2,3,8/20/16,420000,275415,neighborhood,South Broad Street
21 N 6th St,7107,Newark,NJ,Essex,40.749073,-74.192231,SingleFamily,2016,155028,1940,2500,1945,1,5,10/25/16,62000,273684,neighborhood,Fairmuont
146 S 11th St,7107,Newark,NJ,Essex,40.749416,-74.196935,SingleFamily,2016,149979,1940,1882,1926,1,5,12/16/16,90000,273684,neighborhood,Fairmuont
32 Boylan St,7106,Newark,NJ,Essex,40.744701,-74.225702,MultiFamily2To4,2015,131574,1940,2613,1745,2,5,2/1/17,180000,275833,neighborhood,Upper Vailsburg
100 Wright St,7114,Newark,NJ,Essex,40.720833,-74.183257,MultiFamily2To4,2015,270426,2002,2613,2558,4,6,8/12/16,250000,275415,neighborhood,South Broad Street
352 7th Ave W,7107,Newark,NJ,Essex,40.754129,-74.188563,MultiFamily2To4,2015,177314,1900,2509,NA,2,4,1/20/17,95000,274372,neighborhood,Lower Roseville
103 Pulaski St,7105,Newark,NJ,Essex,40.722657,-74.158975,MultiFamily5Plus,2015,191438,1916,2613,2850,1,2,12/22/16,270000,274724,neighborhood,North Ironbound
280 Littleton Ave,7103,Newark,NJ,Essex,40.73732,-74.196567,MultiFamily2To4,2015,142656,1914,2613,2628,NA,0,4/11/17,115000,275990,neighborhood,West Side
132 Court St,7103,Newark,NJ,Essex,40.733152,-74.181828,SingleFamily,2015,73121,1915,1812,2603,NA,NA,12/28/16,285000,275519,neighborhood,Springfield-Belmont
54 Elliott St,7104,Newark,NJ,Essex,40.775203,-74.16213,MultiFamily2To4,2015,155476,1915,4567,2080,NA,6,3/3/17,87000,274692,neighborhood,North Broadway
40 Eastern Pkwy,7106,Newark,NJ,Essex,40.741206,-74.238099,SingleFamily,2015,182856,1927,3920,1478,1,3,11/29/16,143352,12970,city,Newark
175 S 7th St,7103,Newark,NJ,Essex,40.742984,-74.196685,MultiFamily2To4,2015,150043,1891,1712,2244,3,4,8/19/16,95000,273684,neighborhood,Fairmuont
37 Rose Ter,7108,Newark,NJ,Essex,40.726748,-74.20094,Townhouse,2016,158681,1930,3463,2591,2,3,8/9/16,340000,275990,neighborhood,West Side
423 18th Ave,7108,Newark,NJ,Essex,40.731018,-74.20153,MultiFamily2To4,2016,164160,1920,9239,2855,2,5,11/7/16,175000,275990,neighborhood,West Side
72 Schuyler Ave,7112,Newark,NJ,Essex,40.715131,-74.209975,MultiFamily2To4,2015,223924,1927,3484,NA,3,7,3/7/17,105000,275941,neighborhood,Weequahic
9 Varsity Rd,7106,Newark,NJ,Essex,40.739238,-74.235713,MultiFamily2To4,2015,202630,1952,5227,2599,3,7,12/1/00,142000,12970,city,Newark
17 Earl St,7114,Newark,NJ,Essex,40.719466,-74.188382,MultiFamily5Plus,2016,174258,1900,2613,1250,1,4,11/14/16,60500,275415,neighborhood,South Broad Street
33 Mount Vernon Pl,7106,Newark,NJ,Essex,40.735994,-74.238542,SingleFamily,2015,146132,1927,3484,1384,NA,3,11/17/16,136000,12970,city,Newark
583 N 7th St,7107,Newark,NJ,Essex,40.770022,-74.181825,Condominium,2015,219904,1902,2500,2601,NA,NA,9/21/16,340000,275830,neighborhood,Upper Roseville
192 Littleton Ave,7103,Newark,NJ,Essex,40.74051,-74.19517,MultiFamily2To4,2015,208062,1930,2613,2325,2,4,4/15/16,299670,273684,neighborhood,Fairmuont
319 Lake St,7104,Newark,NJ,Essex,40.761653,-74.178108,MultiFamily2To4,2016,272883,2005,3484,2964,6,9,10/31/05,558000,275335,neighborhood,Seventh Avenue
378 Lafayette St,7105,Newark,NJ,Essex,40.7262,-74.156017,MultiFamily5Plus,2015,277597,1895,NA,2984,1,2,9/30/16,330000,274724,neighborhood,North Ironbound
799 S 13th St,7108,Newark,NJ,Essex,40.72617,-74.209311,SingleFamily,2015,162972,1910,3049,NA,1,3,12/21/16,127000,276619,neighborhood,Upper Clinton Hill
291 W Runyon St,7108,Newark,NJ,Essex,40.719593,-74.208527,MultiFamily2To4,2015,189157,1900,3484,1760,2,3,9/27/16,60000,276619,neighborhood,Upper Clinton Hill
27 Schalk St,7105,Newark,NJ,Essex,40.73275,-74.140442,SingleFamily,2015,165798,1887,2500,1278,NA,NA,8/22/16,180000,274724,neighborhood,North Ironbound
106 S 10th St,7107,Newark,NJ,Essex,40.749456,-74.195872,MultiFamily2To4,2015,112886,1902,2052,1631,2,6,4/6/17,40000,273684,neighborhood,Fairmuont
84 W Kinney St,7102,Newark,NJ,Essex,40.729812,-74.180295,Apartment,2015,66710,2016,3001,1600,2,3,8/20/16,420000,275415,neighborhood,South Broad Street
21 N 6th St,7107,Newark,NJ,Essex,40.749073,-74.192231,SingleFamily,2016,155028,1940,2500,1945,1,5,10/25/16,62000,273684,neighborhood,Fairmuont
146 S 11th St,7107,Newark,NJ,Essex,40.749416,-74.196935,SingleFamily,2016,149979,1940,1882,1926,1,5,12/16/16,90000,273684,neighborhood,Fairmuont
32 Boylan St,7106,Newark,NJ,Essex,40.744701,-74.225702,MultiFamily2To4,2015,131574,1940,2613,1745,2,5,2/1/17,180000,275833,neighborhood,Upper Vailsburg
100 Wright St,7114,Newark,NJ,Essex,40.720833,-74.183257,MultiFamily2To4,2015,270426,2002,2613,2558,4,6,8/12/16,250000,275415,neighborhood,South Broad Street
352 7th Ave W,7107,Newark,NJ,Essex,40.754129,-74.188563,MultiFamily2To4,2015,177314,1900,2509,NA,2,4,1/20/17,95000,274372,neighborhood,Lower Roseville
103 Pulaski St,7105,Newark,NJ,Essex,40.722657,-74.158975,MultiFamily5Plus,2015,191438,1916,2613,2850,1,2,12/22/16,270000,274724,neighborhood,North Ironbound
280 Littleton Ave,7103,Newark,NJ,Essex,40.73732,-74.196567,MultiFamily2To4,2015,142656,1914,2613,2628,NA,0,4/11/17,115000,275990,neighborhood,West Side
132 Court St,7103,Newark,NJ,Essex,40.733152,-74.181828,SingleFamily,2015,73121,1915,1812,2603,NA,NA,12/28/16,285000,275519,neighborhood,Springfield-Belmont
54 Elliott St,7104,Newark,NJ,Essex,40.775203,-74.16213,MultiFamily2To4,2015,155476,1915,4567,2080,NA,6,3/3/17,87000,274692,neighborhood,North Broadway
40 Eastern Pkwy,7106,Newark,NJ,Essex,40.741206,-74.238099,SingleFamily,2015,182856,1927,3920,1478,1,3,11/29/16,143352,12970,city,Newark
175 S 7th St,7103,Newark,NJ,Essex,40.742984,-74.196685,MultiFamily2To4,2015,150043,1891,1712,2244,3,4,8/19/16,95000,273684,neighborhood,Fairmuont
37 Rose Ter,7108,Newark,NJ,Essex,40.726748,-74.20094,Townhouse,2016,158681,1930,3463,2591,2,3,8/9/16,340000,275990,neighborhood,West Side
423 18th Ave,7108,Newark,NJ,Essex,40.731018,-74.20153,MultiFamily2To4,2016,164160,1920,9239,2855,2,5,11/7/16,175000,275990,neighborhood,West Side
72 Schuyler Ave,7112,Newark,NJ,Essex,40.715131,-74.209975,MultiFamily2To4,2015,223924,1927,3484,NA,3,7,3/7/17,105000,275941,neighborhood,Weequahic
9 Varsity Rd,7106,Newark,NJ,Essex,40.739238,-74.235713,MultiFamily2To4,2015,202630,1952,5227,2599,3,7,12/1/00,142000,12970,city,Newark
111 Orchard St,7003,Bloomfield,NJ,Essex,40.797444,-74.184908,SingleFamily,2015,469636,1925,7649,4054,NA,NA,4/21/17,520000,3699,city,Bloomfield
52 Merkel Dr,7003,Bloomfield,NJ,Essex,40.845614,-74.180773,SingleFamily,2015,217693,1958,5227,NA,1,2,4/21/17,280000,3699,city,Bloomfield
1614 Hamilton St,7109,Belleville,NJ,Essex,40.799116,-74.173045,Condominium,2015,252786,2008,NA,1100,3,2,4/21/17,265000,37362,city,Belleville
706 Hero Way,7109,Belleville,NJ,Essex,40.798407,-74.171544,SingleFamily,2015,275795,NA,NA,NA,NA,NA,4/21/17,292000,37362,city,Belleville
44 Jessica Way,7079,South Orange,NJ,Essex,40.761184,-74.264674,SingleFamily,2015,622997,1998,10454,2586,4,4,4/20/17,739000,34059,city,South Orange
34 Hickory Dr,7040,Maplewood,NJ,Essex,40.733953,-74.28343,SingleFamily,2015,757831,1908,11761,NA,3.5,5,4/19/17,1300000,39616,city,Maplewood
176 Millburn Ave # C1015,7041,Millburn,NJ,Essex,40.721755,-74.294776,Condominium,2015,326850,1948,NA,NA,1,2,4/19/17,360000,36150,city,Millburn
189 Adelaide St,7109,Belleville,NJ,Essex,40.803884,-74.155571,SingleFamily,2015,256397,1950,3920,1400,2,3,4/19/17,322000,37362,city,Belleville
45 Oak Ln,7044,Verona,NJ,Essex,40.839344,-74.235451,SingleFamily,2015,348371,1955,8120,1425,2,4,4/19/17,400000,14839,city,Cedar Grove
54 S Ashby Ave,7039,Livingston,NJ,Essex,40.792028,-74.323047,SingleFamily,2015,381926,1950,8712,3100,4,4,4/19/17,825000,56428,city,Livingston
14 Forest St # C4302,7042,Montclair,NJ,Essex,40.814334,-74.216087,Condominium,2015,188438,1924,23749,692,1,1,4/19/17,157000,39839,city,Montclair
26 Woodside Rd,7009,CEDAR GROVE,NJ,Essex,40.856779,-74.223548,SingleFamily,2015,486069,1940,8930,1911,2,4,4/19/17,465000,14839,city,Cedar Grove
384 S Harrison St,7018,East Orange,NJ,Essex,40.757227,-74.230914,SingleFamily,2015,199332,1930,8276,1593,3,3,4/18/17,225000,51806,city,East Orange
59 Herbert Ter,7052,West Orange,NJ,Essex,40.773827,-74.296222,Townhouse,2015,305801,1984,NA,1656,2,2,4/18/17,250000,16216,city,West Orange
4 Rawding Ct,7044,Verona,NJ,Essex,40.8455,-74.2419,SingleFamily,NA,NA,2016,10018,NA,5,5,4/18/17,885000,43078,city,Verona
280 Centre St,7110,Nutley,NJ,Essex,40.813579,-74.158103,SingleFamily,2015,265139,1947,3798,NA,2,3,4/18/17,330000,13056,city,Nutley
42 Rutgers St,7040,Maplewood,NJ,Essex,40.721708,-74.265646,SingleFamily,2015,412130,1927,7405,1918,2,3,4/17/17,512000,39616,city,Maplewood
50 N Jefferson St,7050,Orange,NJ,Essex,40.776847,-74.236437,MultiFamily2To4,2015,244081,1901,2178,NA,2,5,4/17/17,154000,53733,city,Orange
26 Curtis Pl,7040,Maplewood,NJ,Essex,40.732667,-74.283664,SingleFamily,2015,965674,1909,17998,2887,4,5,4/17/17,1310000,39616,city,Maplewood
19 Western Dr,7078,Short Hills,NJ,Essex,40.734024,-74.324722,SingleFamily,2015,2633452,1913,58806,5000,6,6,4/17/17,1795000,13829,city,Short Hills
44 Grosvenor Rd,7078,Short Hills,NJ,Essex,40.739476,-74.318553,SingleFamily,2015,2567670,1929,31999,6000,6,5,4/17/17,2450000,13829,city,Short Hills
41 Delaware Ave,7003,Bloomfield,NJ,Essex,40.785317,-74.194936,MultiFamily2To4,2015,257407,1900,3700,1480,3,4,4/17/17,360000,3699,city,Bloomfield
272 Linden Ave,7109,Belleville,NJ,Essex,40.80341,-74.148744,SingleFamily,2015,278064,1946,5662,1260,2,4,4/17/17,290500,37362,city,Belleville
9 Montgomery St UNIT A1,7109,Belleville,NJ,Essex,40.793295,-74.178524,Condominium,2015,151259,NA,283140,NA,NA,NA,4/17/17,185000,37362,city,Belleville
12 Kinder Dr,7003,Bloomfield,NJ,Essex,40.83759,-74.171808,SingleFamily,2015,481614,1987,5227,NA,3,4,4/17/17,410000,3699,city,Bloomfield
21 Powell Dr,7052,West Orange,NJ,Essex,40.780187,-74.282417,SingleFamily,2015,494445,1969,15002,2380,4,4,4/16/17,465000,16216,city,West Orange
20 Grove St,7003,Bloomfield,NJ,Essex,40.774262,-74.193845,SingleFamily,2015,222106,1950,3484,1162,2,3,4/14/17,149900,3699,city,Bloomfield
15 Burr Rd,7040,Maplewood,NJ,Essex,40.733608,-74.25785,SingleFamily,2015,489669,1930,8276,2210,4,5,4/14/17,825000,39616,city,Maplewood
17 Whittingham Ter,7041,Millburn,NJ,Essex,40.723754,-74.304795,SingleFamily,2015,846356,1985,7601,2191,3,4,4/14/17,980000,36150,city,Millburn
247 Springdale Ave,7017,East Orange,NJ,Essex,40.76966,-74.201054,MultiFamily2To4,2015,192992,1925,7405,2124,2,4,4/14/17,170000,51806,city,East Orange
207 Metzger Dr,7052,West Orange,NJ,Essex,40.77105,-74.292476,Condominium,2015,901152,2009,NA,2662,3,2,4/14/17,985000,16216,city,West Orange
8 Northview Ter,7040,Maplewood,NJ,Essex,40.721053,-74.27873,SingleFamily,2015,334592,1951,4791,NA,3,3,4/14/17,560000,39616,city,Maplewood
293 Leslie St,7112,Newark,NJ,Essex,40.713962,-74.220518,MultiFamily2To4,2015,165037,1925,3001,2700,2,4,4/14/17,208500,275941,neighborhood,Weequahic
3 Tuscan Rd,7040,Maplewood,NJ,Essex,40.726675,-74.2735,SingleFamily,2015,347923,1926,12632,NA,1,3,4/14/17,547500,39616,city,Maplewood
1 Winthrop Pl,7040,Maplewood,NJ,Essex,40.729225,-74.280941,SingleFamily,2015,514108,1918,6800,2400,4,5,4/14/17,920000,39616,city,Maplewood
29 Van Rensselear St,7109,Belleville,NJ,Essex,40.783213,-74.155394,SingleFamily,2016,171963,1897,2500,1289,1,2,4/14/17,150000,37362,city,Belleville
115 New St,7109,Belleville,NJ,Essex,40.79169,-74.15887,SingleFamily,2015,270223,1927,4791,1663,2,4,4/14/17,260000,37362,city,Belleville
100 Bellevue Ter,7003,Bloomfield,NJ,Essex,40.841193,-74.185091,SingleFamily,2015,348602,1955,7405,1589,3,3,4/14/17,470000,3699,city,Bloomfield
86 Jacoby St,7040,Maplewood,NJ,Essex,40.719955,-74.253003,SingleFamily,2016,199156,1928,5662,1346,2,3,4/13/17,379500,39616,city,Maplewood
14 Exeter Rd,7078,Short Hills,NJ,Essex,40.757489,-74.307104,SingleFamily,2015,808946,1940,10441,1352,2,3,4/13/17,739000,13829,city,Short Hills
22 Rosedale Ave,7041,Millburn,NJ,Essex,40.725277,-74.287091,SingleFamily,2015,501659,1925,3920,1674,2,3,4/13/17,640000,36150,city,Millburn
103 Metzger Dr,7052,West Orange,NJ,Essex,40.770786,-74.292973,Townhouse,2015,761160,2009,NA,2501,3,2,4/13/17,937500,16216,city,West Orange
74 Whiteoak Dr,7079,South Orange,NJ,Essex,40.754143,-74.277226,SingleFamily,2015,577804,1952,14810,NA,5,4,4/13/17,985000,34059,city,South Orange
58 Grant Ave,7110,Nutley,NJ,Essex,40.814162,-74.142192,SingleFamily,2015,305292,1947,6098,854,2,2,4/13/17,265000,13056,city,Nutley
101 Inwood Ave,7043,Montclair,NJ,Essex,40.843812,-74.195341,SingleFamily,2015,955206,NA,NA,NA,5,6,4/13/17,1040000,39839,city,Montclair
55 Beech St,7009,Cedar Grove,NJ,Essex,40.862527,-74.234594,SingleFamily,2015,391379,1947,5662,1490,2,3,4/13/17,440000,14839,city,Cedar Grove
35 Clara Pl,7009,Cedar Grove,NJ,Essex,40.844852,-74.230934,SingleFamily,2015,296689,1950,5227,1377,2,3,4/13/17,369900,14839,city,Cedar Grove
73 Mount Prospect Ave,7044,Verona,NJ,Essex,40.822143,-74.235915,SingleFamily,2015,781756,1919,19602,2910,3.5,5,4/13/17,489000,43078,city,Verona
15 Augusta St,7111,Irvington,NJ,Essex,40.725273,-74.226921,SingleFamily,2016,165978,1887,3484,NA,3,5,4/12/17,79900,12067,city,Irvington
37 Whittingham Pl,7052,West Orange,NJ,Essex,40.77456,-74.241922,MultiFamily2To4,2015,257149,1950,4791,2167,3,4,4/12/17,305000,16216,city,West Orange
43 N 18th St,7017,East Orange,NJ,Essex,40.759553,-74.199337,MultiFamily2To4,2015,194883,1920,2617,2620,3,5,4/12/17,60000,415711,neighborhood,Greenwood
24 Llewellyn Ave,7052,West Orange,NJ,Essex,40.788097,-74.23254,MultiFamily2To4,2016,247711,1926,2613,1566,2,4,4/12/17,320000,16216,city,West Orange
28 Carolyn Rd,7109,Belleville,NJ,Essex,40.808107,-74.169242,SingleFamily,2015,241230,1959,7369,982,2,2,4/12/17,245000,37362,city,Belleville
280 Littleton Ave,7103,Newark,NJ,Essex,40.73732,-74.196567,MultiFamily2To4,2015,142656,1914,2613,2628,NA,0,4/11/17,115000,275990,neighborhood,West Side
10 Sycamore Ave,7039,Livingston,NJ,Essex,40.772061,-74.307973,SingleFamily,2015,344316,1951,9601,1084,NA,NA,4/11/17,337000,56428,city,Livingston
57 Spring St,7003,Bloomfield,NJ,Essex,40.803537,-74.189881,MultiFamily2To4,2015,312881,1909,5662,2504,4,6,4/11/17,349500,3699,city,Bloomfield
39 Benson St,7003,Bloomfield,NJ,Essex,40.804783,-74.196745,SingleFamily,2015,375079,1904,6098,2080,3,5,4/11/17,445000,3699,city,Bloomfield
17 Earl St,7114,Newark,NJ,Essex,40.719466,-74.188382,MultiFamily5Plus,2016,174258,1900,2613,1250,1,4,11/14/16,60500,275415,neighborhood,South Broad Street
33 Mount Vernon Pl,7106,Newark,NJ,Essex,40.735994,-74.238542,SingleFamily,2015,146132,1927,3484,1384,NA,3,11/17/16,136000,12970,city,Newark
583 N 7th St,7107,Newark,NJ,Essex,40.770022,-74.181825,Condominium,2015,219904,1902,2500,2601,NA,NA,9/21/16,340000,275830,neighborhood,Upper Roseville
192 Littleton Ave,7103,Newark,NJ,Essex,40.74051,-74.19517,MultiFamily2To4,2015,208062,1930,2613,2325,2,4,4/15/16,299670,273684,neighborhood,Fairmuont
319 Lake St,7104,Newark,NJ,Essex,40.761653,-74.178108,MultiFamily2To4,2016,272883,2005,3484,2964,6,9,10/31/05,558000,275335,neighborhood,Seventh Avenue
378 Lafayette St,7105,Newark,NJ,Essex,40.7262,-74.156017,MultiFamily5Plus,2015,277597,1895,NA,2984,1,2,9/30/16,330000,274724,neighborhood,North Ironbound
799 S 13th St,7108,Newark,NJ,Essex,40.72617,-74.209311,SingleFamily,2015,162972,1910,3049,NA,1,3,12/21/16,127000,276619,neighborhood,Upper Clinton Hill
291 W Runyon St,7108,Newark,NJ,Essex,40.719593,-74.208527,MultiFamily2To4,2015,189157,1900,3484,1760,2,3,9/27/16,60000,276619,neighborhood,Upper Clinton Hill
27 Schalk St,7105,Newark,NJ,Essex,40.73275,-74.140442,SingleFamily,2015,165798,1887,2500,1278,NA,NA,8/22/16,180000,274724,neighborhood,North Ironbound
106 S 10th St,7107,Newark,NJ,Essex,40.749456,-74.195872,MultiFamily2To4,2015,112886,1902,2052,1631,2,6,4/6/17,40000,273684,neighborhood,Fairmuont
84 W Kinney St,7102,Newark,NJ,Essex,40.729812,-74.180295,Apartment,2015,66710,2016,3001,1600,2,3,8/20/16,420000,275415,neighborhood,South Broad Street
21 N 6th St,7107,Newark,NJ,Essex,40.749073,-74.192231,SingleFamily,2016,155028,1940,2500,1945,1,5,10/25/16,62000,273684,neighborhood,Fairmuont
146 S 11th St,7107,Newark,NJ,Essex,40.749416,-74.196935,SingleFamily,2016,149979,1940,1882,1926,1,5,12/16/16,90000,273684,neighborhood,Fairmuont
32 Boylan St,7106,Newark,NJ,Essex,40.744701,-74.225702,MultiFamily2To4,2015,131574,1940,2613,1745,2,5,2/1/17,180000,275833,neighborhood,Upper Vailsburg
100 Wright St,7114,Newark,NJ,Essex,40.720833,-74.183257,MultiFamily2To4,2015,270426,2002,2613,2558,4,6,8/12/16,250000,275415,neighborhood,South Broad Street
352 7th Ave W,7107,Newark,NJ,Essex,40.754129,-74.188563,MultiFamily2To4,2015,177314,1900,2509,NA,2,4,1/20/17,95000,274372,neighborhood,Lower Roseville
103 Pulaski St,7105,Newark,NJ,Essex,40.722657,-74.158975,MultiFamily5Plus,2015,191438,1916,2613,2850,1,2,12/22/16,270000,274724,neighborhood,North Ironbound
280 Littleton Ave,7103,Newark,NJ,Essex,40.73732,-74.196567,MultiFamily2To4,2015,142656,1914,2613,2628,NA,0,4/11/17,115000,275990,neighborhood,West Side
132 Court St,7103,Newark,NJ,Essex,40.733152,-74.181828,SingleFamily,2015,73121,1915,1812,2603,NA,NA,12/28/16,285000,275519,neighborhood,Springfield-Belmont
54 Elliott St,7104,Newark,NJ,Essex,40.775203,-74.16213,MultiFamily2To4,2015,155476,1915,4567,2080,NA,6,3/3/17,87000,274692,neighborhood,North Broadway
40 Eastern Pkwy,7106,Newark,NJ,Essex,40.741206,-74.238099,SingleFamily,2015,182856,1927,3920,1478,1,3,11/29/16,143352,12970,city,Newark
175 S 7th St,7103,Newark,NJ,Essex,40.742984,-74.196685,MultiFamily2To4,2015,150043,1891,1712,2244,3,4,8/19/16,95000,273684,neighborhood,Fairmuont
37 Rose Ter,7108,Newark,NJ,Essex,40.726748,-74.20094,Townhouse,2016,158681,1930,3463,2591,2,3,8/9/16,340000,275990,neighborhood,West Side
423 18th Ave,7108,Newark,NJ,Essex,40.731018,-74.20153,MultiFamily2To4,2016,164160,1920,9239,2855,2,5,11/7/16,175000,275990,neighborhood,West Side
72 Schuyler Ave,7112,Newark,NJ,Essex,40.715131,-74.209975,MultiFamily2To4,2015,223924,1927,3484,NA,3,7,3/7/17,105000,275941,neighborhood,Weequahic
9 Varsity Rd,7106,Newark,NJ,Essex,40.739238,-74.235713,MultiFamily2To4,2015,202630,1952,5227,2599,3,7,12/1/00,142000,12970,city,Newark
50 Chestnut St,7110,Nutley,NJ,Essex,40.817264,-74.150479,SingleFamily,2015,320131,1950,5227,NA,2,3,4/6/17,449900,13056,city,Nutley
59 Anderson Pkwy,7009,Cedar Grove,NJ,Essex,40.872533,-74.230004,SingleFamily,2015,398244,NA,NA,NA,3,5,4/6/17,410000,14839,city,Cedar Grove
47 Rhoda Ave,7110,Nutley,NJ,Essex,40.832811,-74.1661,SingleFamily,2015,423895,1939,4791,NA,3,3,4/6/17,429000,13056,city,Nutley
15 Matt Dr,7004,Fairfield,NJ,Essex,40.860256,-74.308964,SingleFamily,2015,377052,1961,18295,1803,2,3,4/6/17,385000,51976,city,Fairfield
99 Summer Ave,7104,Newark,NJ,Essex,40.754096,-74.173137,MultiFamily2To4,2015,129835,1930,2496,2772,NA,NA,4/5/17,170000,275335,neighborhood,Seventh Avenue
920 S Orange Ave,7078,Short Hills,NJ,Essex,40.754029,-74.307622,SingleFamily,2015,463677,1966,10018,1745,3,4,4/5/17,612000,13829,city,Short Hills
15 Oxford Ter,7052,West Orange,NJ,Essex,40.765112,-74.254641,SingleFamily,2016,362939,1925,7405,2440,3,6,4/5/17,520000,16216,city,West Orange
301 Orange St,7103,Newark,NJ,Essex,40.749539,-74.181484,MultiFamily2To4,2015,149717,1915,2613,2800,3,9,4/5/17,170000,276616,neighborhood,University Heights
533 Norwood St,7018,East Orange,NJ,Essex,40.747787,-74.227798,MultiFamily2To4,2015,157620,1930,10890,1835,3,4,4/5/17,165000,51806,city,East Orange
5 Highland Blvd,7052,West Orange,NJ,Essex,40.775322,-74.267863,SingleFamily,2015,320613,2014,11325,3000,3,5,4/4/17,679000,16216,city,West Orange
81 Sand Rd,7004,Fairfield,NJ,Essex,40.887817,-74.287155,SingleFamily,2015,353023,1930,7427,1800,NA,NA,4/4/17,460000,51976,city,Fairfield
348 N Fullerton Ave,7043,Montclair,NJ,Essex,40.831529,-74.204406,SingleFamily,2015,697702,1920,12196,2312,2,6,4/4/17,627000,39839,city,Montclair
56 Irving Ave,7039,Livingston,NJ,Essex,40.789013,-74.317031,SingleFamily,2015,365928,NA,5662,2500,3,4,4/4/17,660000,56428,city,Livingston
23 Oak St,7109,Belleville,NJ,Essex,40.795464,-74.154332,SingleFamily,2015,214507,1922,4791,1120,2,3,4/4/17,210000,37362,city,Belleville
71 Fellswood Dr,7039,Livingston,NJ,Essex,40.801357,-74.308463,SingleFamily,2015,433097,1950,9147,3300,3,4,4/4/17,850000,56428,city,Livingston
441 Overhill Rd,7079,South Orange,NJ,Essex,40.749925,-74.272769,SingleFamily,2015,984782,1930,10890,5095,5,7,4/3/17,1165000,34059,city,South Orange
23 Triton Ter,7104,Newark,NJ,Essex,40.768033,-74.159987,MultiFamily2To4,2015,143308,1909,2613,NA,3,6,4/3/17,165000,274692,neighborhood,North Broadway
8 West St,7003,Bloomfield,NJ,Essex,40.791877,-74.191802,SingleFamily,2015,224522,1908,2213,896,1,3,4/3/17,199000,3699,city,Bloomfield
112 William St,7109,Belleville,NJ,Essex,40.784977,-74.154467,MultiFamily2To4,2015,391767,1887,5854,2810,4,6,4/3/17,390000,37362,city,Belleville
87 Valley Way,7052,West Orange,NJ,Essex,40.795196,-74.23492,SingleFamily,2016,309372,1930,6534,NA,2,4,4/3/17,355000,16216,city,West Orange
14 Eastwood Pl,7009,Cedar Grove,NJ,Essex,40.849055,-74.227074,SingleFamily,2015,684231,2007,13503,3660,5,5,4/3/17,709000,14839,city,Cedar Grove
118 Essex Ave,7028,Glen Ridge,NJ,Essex,40.809615,-74.196513,SingleFamily,2015,480840,1916,10000,1965,2,4,4/3/17,533675,42270,city,Glen Ridge
7 Crestview Dr,7052,West Orange,NJ,Essex,40.776318,-74.259975,SingleFamily,2015,521189,1958,NA,NA,3,3,3/31/17,580000,16216,city,West Orange
36 Crest Dr,7079,South Orange,NJ,Essex,40.747779,-74.278418,SingleFamily,2015,776887,1958,22215,5784,6,5,3/31/17,785000,34059,city,South Orange
110 Lessing Rd,7052,West Orange,NJ,Essex,40.776742,-74.276321,SingleFamily,2015,378420,1955,30492,2068,3,4,3/31/17,550000,16216,city,West Orange
96 South Ter,7078,Short Hills,NJ,Essex,40.727645,-74.33366,SingleFamily,2015,1775312,1932,32234,1,5,6,3/31/17,1380000,13829,city,Short Hills
3 Village Green Ct,7079,South Orange,NJ,Essex,40.748737,-74.264997,SingleFamily,2015,437071,1987,199679,1816,NA,NA,3/31/17,517500,34059,city,South Orange
71 Harper Ave,7111,Irvington,NJ,Essex,40.713488,-74.244514,SingleFamily,2015,144138,1959,2496,1800,3,4,3/31/17,185000,12067,city,Irvington
656 S 15th St,7103,Newark,NJ,Essex,40.732074,-74.208389,SingleFamily,2015,160148,2000,3498,1777,NA,NA,3/31/17,157000,275990,neighborhood,West Side
59 Chester Ave,7104,Newark,NJ,Essex,40.768139,-74.162582,SingleFamily,2016,141599,1882,2121,1468,2,4,3/31/17,160000,274692,neighborhood,North Broadway
182 Broughton Ave,7003,Bloomfield,NJ,Essex,40.816355,-74.185277,SingleFamily,2015,234713,1952,3049,1195,2,2,3/31/17,269000,3699,city,Bloomfield
173 Horseneck Rd,7004,Fairfield,NJ,Essex,40.876097,-74.310372,SingleFamily,2015,340709,1930,6534,NA,2,4,3/31/17,420500,51976,city,Fairfield
2 Januson Ct,7052,West Orange,NJ,Essex,40.808476,-74.247563,SingleFamily,2015,711684,2003,10454,4631,4,5,3/31/17,692000,16216,city,West Orange
386 Orange Rd,7042,Montclair,NJ,Essex,40.792863,-74.219107,SingleFamily,2015,373711,1925,7405,2553,2.5,3,3/31/17,575000,39839,city,Montclair
4 Bauer Dr,7052,West Orange,NJ,Essex,40.802738,-74.260032,SingleFamily,2015,333471,1960,12632,1628,3,3,3/31/17,425500,16216,city,West Orange
15 Henning Dr,7004,Fairfield,NJ,Essex,40.881321,-74.307188,SingleFamily,2015,458150,NA,14810,NA,3,4,3/31/17,651000,51976,city,Fairfield
52 Adams Pl,7028,Glen Ridge,NJ,Essex,40.790049,-74.211343,SingleFamily,2015,446354,1912,NA,NA,3,4,3/31/17,475000,42270,city,Glen Ridge
93 Darling Ave,7003,Bloomfield,NJ,Essex,40.833869,-74.167987,SingleFamily,2015,337781,1947,NA,NA,3,4,3/31/17,336000,3699,city,Bloomfield
17 Laurel Ave,7039,Livingston,NJ,Essex,40.798452,-74.298701,SingleFamily,2015,445069,1940,12196,1392,1,3,3/31/17,379000,56428,city,Livingston
245 N 16th St,7003,Bloomfield,NJ,Essex,40.775091,-74.188214,SingleFamily,2016,154024,1942,2299,NA,1,2,3/30/17,180000,3699,city,Bloomfield
145 W Northfield Rd,7039,Livingston,NJ,Essex,40.780281,-74.330222,SingleFamily,2015,406293,1960,18295,1480,2,3,3/30/17,426000,56428,city,Livingston
34 Franklin Ter,7111,Irvington,NJ,Essex,40.725387,-74.246492,MultiFamily2To4,2015,138317,1910,3484,2653,5,8,3/30/17,290000,12067,city,Irvington
11 Edgar St,7018,East Orange,NJ,Essex,40.756017,-74.224414,SingleFamily,2015,149055,NA,NA,1687,1.5,3,3/30/17,72500,51806,city,East Orange
63 Blanchard Rd,7079,South Orange,NJ,Essex,40.760192,-74.266177,SingleFamily,2015,536613,1964,14374,NA,3,3,3/30/17,753000,34059,city,South Orange
61 Hillside Ave,7044,Verona,NJ,Essex,40.826035,-74.255418,SingleFamily,2015,352472,1900,6952,1258,2,3,3/30/17,322000,43078,city,Verona
30 Aspen Dr,7039,Livingston,NJ,Essex,40.808632,-74.293131,SingleFamily,2015,1391673,1991,23522,6000,6,8,3/30/17,974000,56428,city,Livingston
33 Cross St,7110,Nutley,NJ,Essex,40.811672,-74.160745,SingleFamily,2015,309220,1951,4791,1326,NA,4,3/30/17,380000,13056,city,Nutley
20 Overhill Rd,7109,Belleville,NJ,Essex,40.801335,-74.174036,SingleFamily,2015,224722,1952,5227,NA,2,3,3/30/17,250000,37362,city,Belleville
47 4th St,7107,Newark,NJ,Essex,40.748664,-74.190551,SingleFamily,2015,202955,2001,3484,2694,3,6,3/29/17,279000,273684,neighborhood,Fairmuont
135 Ward Pl,7079,South Orange,NJ,Essex,40.741453,-74.252096,SingleFamily,2015,353204,1910,7405,1866,NA,5,3/29/17,370000,192024,neighborhood,Seton Village
39 Claremont Ave,7042,Montclair,NJ,Essex,40.812599,-74.20669,MultiFamily5Plus,2015,480769,1907,3920,30130,1,2,3/29/17,640000,39839,city,Montclair
357 Little St,7109,Belleville,NJ,Essex,40.799028,-74.156674,SingleFamily,2015,241746,1922,4791,1126,3,3,3/29/17,265000,37362,city,Belleville
19 E Lincoln St,7044,Verona,NJ,Essex,40.832887,-74.250231,SingleFamily,2015,337287,1942,5227,NA,2,2,3/29/17,320000,43078,city,Verona
20 Bodwell Ter,7041,Millburn,NJ,Essex,40.723531,-74.314123,SingleFamily,2015,650727,1923,6050,2071,4,4,3/28/17,772000,36150,city,Millburn
16 Euclid Ave,7040,Maplewood,NJ,Essex,40.736021,-74.279815,SingleFamily,2015,749944,1923,9583,NA,3,5,3/28/17,650000,39616,city,Maplewood
89 Park Ave,7017,East Orange,NJ,Essex,40.762199,-74.196428,MultiFamily2To4,2015,176529,1930,6969,3000,3,5,3/28/17,230000,415711,neighborhood,Greenwood
21 Rutgers St,7040,Maplewood,NJ,Essex,40.723208,-74.266037,SingleFamily,2015,472339,1927,7405,1802,2,3,3/28/17,649000,39616,city,Maplewood
1 Pine Ter E,7078,Short Hills,NJ,Essex,40.722184,-74.32228,SingleFamily,2015,973344,1935,7840,NA,4,5,3/20/17,1351000,13829,city,Short Hills
45 Great Hills Rd,7078,Short Hills,NJ,Essex,40.747643,-74.316297,SingleFamily,2015,1128589,1942,32670,1,4,5,3/20/17,1165000,13829,city,Short Hills
10 Oxford St,7042,Montclair,NJ,Essex,40.816277,-74.205785,MultiFamily2To4,2015,430582,NA,6534,NA,2,6,3/20/17,575000,39839,city,Montclair
34 Godfrey Rd,7043,Montclair,NJ,Essex,40.835967,-74.211267,SingleFamily,2015,672374,1912,7405,2800,4,6,3/20/17,852000,39839,city,Montclair
59 Winchester Rd,7039,Livingston,NJ,Essex,40.782186,-74.32445,SingleFamily,2015,492426,1960,8276,2064,1.5,4,3/19/17,449000,56428,city,Livingston
8 Stanley Rd,7079,South Orange,NJ,Essex,40.745838,-74.238026,SingleFamily,2015,291991,1926,3920,1974,3,4,3/17/17,321000,34059,city,South Orange
57 Weequahic Ave,7112,Newark,NJ,Essex,40.706574,-74.208615,SingleFamily,2015,163516,1910,3202,3202,3,4,3/30/17,240000,275941,neighborhood,Weequahic
76 4th Ave,7104,Newark,NJ,Essex,40.756658,-74.170516,SingleFamily,2015,154281,1857,2500,2350,NA,NA,3/17/17,215000,274603,neighborhood,Mount Pleasant
196 3rd St,7107,Newark,NJ,Essex,40.754352,-74.186566,SingleFamily,2015,118970,1915,2500,1694,2,4,3/17/17,235000,274372,neighborhood,Lower Roseville
172 Madison Ave,7111,Irvington,NJ,Essex,40.732187,-74.228129,MultiFamily2To4,2015,133310,1930,3049,NA,2,4,3/17/17,63000,12067,city,Irvington
29 Seymour Ave,7108,Newark,NJ,Essex,40.724581,-74.201397,SingleFamily,2015,158518,1960,3484,2597,3,7,3/17/17,100000,276619,neighborhood,Upper Clinton Hill
21 Grove Pl,7017,East Orange,NJ,Essex,40.760121,-74.201694,MultiFamily2To4,2015,159955,1930,2274,999,3,9,3/17/17,205000,415711,neighborhood,Greenwood
84 Floyd Ave,7003,Bloomfield,NJ,Essex,40.776187,-74.193655,SingleFamily,2015,177978,1926,3484,NA,1,3,3/17/17,160000,3699,city,Bloomfield
643 S 19th St,7103,Newark,NJ,Essex,40.734531,-74.211964,MultiFamily2To4,2015,154933,1914,NA,NA,2,6,3/17/17,65000,275990,neighborhood,West Side
125 Florence Ave,7111,Irvington,NJ,Essex,40.729035,-74.243863,SingleFamily,2015,178717,1924,3990,2396,NA,NA,7/26/99,159500,12067,city,Irvington
74 Nestro Rd,7052,West Orange,NJ,Essex,40.816736,-74.259193,SingleFamily,2016,210330,1953,6865,1396,NA,NA,3/17/17,260000,16216,city,West Orange
92 Morningside Rd,7044,Verona,NJ,Essex,40.827861,-74.256707,SingleFamily,2015,363889,1941,5662,NA,2,3,3/17/17,365000,43078,city,Verona
1286 Pleasant Valley Way,7052,West Orange,NJ,Essex,40.782408,-74.275388,SingleFamily,2015,241720,1960,7840,1428,2,3,3/17/17,340000,16216,city,West Orange
511 Franklin Ave APT B1,7109,Belleville,NJ,Essex,40.807548,-74.168586,Condominium,2015,137639,1989,NA,NA,1,2,3/17/17,145000,37362,city,Belleville
14 Oxford Dr,7039,Livingston,NJ,Essex,40.805331,-74.290625,SingleFamily,2015,541477,1961,10454,NA,3,4,3/17/17,506000,56428,city,Livingston
50 Brentwood Dr,7044,Verona,NJ,Essex,40.834319,-74.238902,SingleFamily,2015,384173,1950,7802,1498,2,3,3/17/17,455000,43078,city,Verona
32 Pieretti Ct,7003,Bloomfield,NJ,Essex,40.839051,-74.170711,SingleFamily,2016,474766,1989,6098,2352,3,4,3/17/17,475000,3699,city,Bloomfield
525 Eagle Rock Ave,7052,West Orange,NJ,Essex,40.805919,-74.252609,SingleFamily,2015,201913,1930,3842,1104,2,3,3/17/17,265000,16216,city,West Orange
36 Park St,7003,Bloomfield,NJ,Essex,40.797629,-74.199013,SingleFamily,2015,347552,NA,NA,NA,4,4,3/17/17,325000,3699,city,Bloomfield
32 Skytop Rd,7009,Cedar Grove,NJ,Essex,40.856777,-74.242684,SingleFamily,2015,409954,1955,10254,1304,1.5,3,3/17/17,383000,14839,city,Cedar Grove
41 Berkeley Pl,7039,Livingston,NJ,Essex,40.785429,-74.317765,SingleFamily,2015,409471,1930,8250,1316,NA,NA,3/17/17,636400,56428,city,Livingston
68 S Prospect St,7044,Verona,NJ,Essex,40.829997,-74.251363,SingleFamily,2015,472401,1909,12632,2636,2,7,3/17/17,760000,43078,city,Verona
39 Intervale Rd,7039,Livingston,NJ,Essex,40.791415,-74.331936,SingleFamily,2015,493167,1955,18730,1404,3,3,3/17/17,575000,56428,city,Livingston
48 Undercliff Ter S,7052,West Orange,NJ,Essex,40.764979,-74.265647,SingleFamily,2015,408146,1955,9147,1900,3,4,3/16/17,510000,16216,city,West Orange
77 S Burnett St,7018,East Orange,NJ,Essex,40.761548,-74.21655,MultiFamily2To4,2016,257640,1910,3598,7700,3,7,3/16/17,285000,51806,city,East Orange
130 Steuben St,7018,East Orange,NJ,Essex,40.752408,-74.202432,SingleFamily,2015,151835,1950,2613,2024,2,4,3/16/17,179000,51806,city,East Orange
33 Rich St,7111,Irvington,NJ,Essex,40.731364,-74.231755,MultiFamily2To4,2016,133922,1936,5227,1396,2,3,3/16/17,99000,12067,city,Irvington
18 Cornell St,7111,Irvington,NJ,Essex,40.716902,-74.238827,MultiFamily2To4,2015,148795,1927,3484,NA,2,2,3/16/17,90000,12067,city,Irvington
15 Marion Ave,7078,Short Hills,NJ,Essex,40.728857,-74.311012,SingleFamily,2015,1389543,1885,20473,4200,4,5,3/16/17,1925000,13829,city,Short Hills
25 Rosehill Pl,7111,Irvington,NJ,Essex,40.716284,-74.229884,SingleFamily,2015,59146,1903,2613,NA,1,3,3/16/17,29900,12067,city,Irvington
748 S 11th St,7103,Newark,NJ,Essex,40.727442,-74.206231,SingleFamily,2015,174490,1950,3049,3547,3,6,3/16/17,375000,275990,neighborhood,West Side
135 Lincoln Pl,7111,Irvington,NJ,Essex,40.721596,-74.236804,SingleFamily,2015,148445,1923,4791,1460,2,3,3/16/17,147000,12067,city,Irvington
46 Princeton St,7040,Maplewood,NJ,Essex,40.719033,-74.267405,SingleFamily,2015,298934,1925,3484,1588,2,3,3/16/17,475000,39616,city,Maplewood
15 Elmwood Pl,7078,Short Hills,NJ,Essex,40.719776,-74.32688,SingleFamily,2016,940672,1941,6098,1,3,3,3/16/17,960000,13829,city,Short Hills
34 Center Ave,7009,Cedar Grove,NJ,Essex,40.875694,-74.233883,SingleFamily,2015,457702,1932,19132,1728,2,4,3/16/17,385000,14839,city,Cedar Grove
68 Amelia Ave,7039,Livingston,NJ,Essex,40.790474,-74.318419,SingleFamily,2015,419960,1948,11761,NA,2,3,3/16/17,531000,56428,city,Livingston
91 Hathaway Ln,7021,Essex Fells,NJ,Essex,40.826954,-74.28418,SingleFamily,2015,701422,1920,18295,2800,4,4,3/16/17,983000,21959,city,Essex Fells
50 Newark Ave,7003,Bloomfield,NJ,Essex,40.787465,-74.184171,SingleFamily,2015,275478,1950,4356,1510,2,4,3/16/17,315000,3699,city,Bloomfield
2 Roswell Ter,7028,Glen Ridge,NJ,Essex,40.812844,-74.202086,SingleFamily,2015,571600,1920,5600,2170,4,4,3/16/17,750000,42270,city,Glen Ridge
34 Hazel Ave,7039,Livingston,NJ,Essex,40.797318,-74.316735,SingleFamily,2015,431190,1956,8712,1456,2,3,3/16/17,480000,56428,city,Livingston
89 Lynwood Rd,7044,Verona,NJ,Essex,40.843708,-74.24291,SingleFamily,2015,304367,1953,8140,1356,2,4,3/16/17,371000,43078,city,Verona
33 Franklin Ave,7006,West Caldwell,NJ,Essex,40.852963,-74.307861,SingleFamily,2015,325100,1935,7840,1428,2,2,3/16/17,345000,21214,city,West Caldwell
15 Eaton Pl,7003,Bloomfield,NJ,Essex,40.827862,-74.188133,SingleFamily,2015,308258,1947,4356,1280,2,3,3/16/17,285000,3699,city,Bloomfield
488 Linden Pl,7050,Orange,NJ,Essex,40.776545,-74.234595,SingleFamily,2015,221059,1879,10018,3214,2,7,3/15/17,140000,53733,city,Orange
10 Marne St,7105,Newark,NJ,Essex,40.724462,-74.151548,MultiFamily5Plus,2015,204367,1910,3049,1882,2,1,3/15/17,370000,274724,neighborhood,North Ironbound
5 Sheffield Ct,7039,Livingston,NJ,Essex,40.777901,-74.296106,SingleFamily,2015,899566,1967,29381,2616,NA,NA,3/15/17,530000,56428,city,Livingston
624 S 20th St,7103,Newark,NJ,Essex,40.735238,-74.21207,Townhouse,2015,272924,2006,NA,3500,2,3,3/15/17,1500,275990,neighborhood,West Side
638 N 5th St,7107,Newark,NJ,Essex,40.770323,-74.180262,MultiFamily2To4,2015,286288,1951,NA,NA,4,6,3/15/17,180000,275830,neighborhood,Upper Roseville
25 Salem St,7106,Newark,NJ,Essex,40.745525,-74.23021,MultiFamily2To4,2015,148849,1928,2613,2214,3,7,3/15/17,335000,275833,neighborhood,Upper Vailsburg
25 West Rd,7078,Short Hills,NJ,Essex,40.725432,-74.340907,SingleFamily,2015,1430042,1932,17859,4049,5,5,3/15/17,1330000,13829,city,Short Hills
12 Marne St,7105,Newark,NJ,Essex,40.724503,-74.151476,SingleFamily,2015,208170,NA,3049,NA,2,3,3/15/17,280000,274724,neighborhood,North Ironbound
42 Cambridge St,7018,East Orange,NJ,Essex,40.759127,-74.224144,SingleFamily,2016,122023,1925,3850,1330,2,3,3/15/17,166500,51806,city,East Orange
98 Willoughby St,7112,Newark,NJ,Essex,40.712537,-74.217034,SingleFamily,2015,111039,1953,2500,1364,2,4,3/15/17,129000,275941,neighborhood,Weequahic
68 Marne St,7105,Newark,NJ,Essex,40.72571,-74.149257,MultiFamily2To4,2015,235875,NA,2613,NA,3,8,3/15/17,220000,274724,neighborhood,North Ironbound
53 Curtis Pl,7040,Maplewood,NJ,Essex,40.734479,-74.285323,SingleFamily,2015,898689,1916,19040,3788,5,6,3/17/17,1600000,39616,city,Maplewood
91 Rosehill Pl,7111,Irvington,NJ,Essex,40.716202,-74.233397,SingleFamily,2015,125043,1902,4791,1080,2,3,3/15/17,68500,12067,city,Irvington
21 Duryea Rd,7043,Montclair,NJ,Essex,40.842979,-74.201634,SingleFamily,2015,727017,1920,9348,2322,4,5,3/15/17,810000,39839,city,Montclair
144 Franklin St,7109,Belleville,NJ,Essex,40.781851,-74.181471,MultiFamily2To4,2015,243191,1917,1572,1564,3,6,3/15/17,162000,37362,city,Belleville
34 Nishuane Rd,7042,Montclair,NJ,Essex,40.797269,-74.22468,SingleFamily,2015,418504,1956,12196,1975,3,3,3/15/17,551000,39839,city,Montclair
83 Essex Ave,7042,Montclair,NJ,Essex,40.825129,-74.204645,SingleFamily,2015,736163,1923,11570,2800,3.5,5,3/15/17,850000,39839,city,Montclair
98 Knoll Ter,7006,West Caldwell,NJ,Essex,40.832913,-74.311464,SingleFamily,2015,404100,1950,13939,1552,2,3,3/15/17,350000,21214,city,West Caldwell
89 Carmer Ave,7109,BELLEVILLE,NJ,Essex,40.806127,-74.149959,SingleFamily,2015,442736,1932,NA,NA,3,3,3/15/17,255000,37362,city,Belleville
156 Rhoda Ave,7110,Nutley,NJ,Essex,40.829496,-74.167856,SingleFamily,2015,307583,1941,9400,1581,2,4,3/15/17,395000,13056,city,Nutley
23 Glen Rd,7044,Verona,NJ,Essex,40.821281,-74.232909,SingleFamily,2015,854356,1912,10890,4500,4,6,NA,NA,43078,city,Verona
23 Derwent Ave,7044,Verona,NJ,Essex,40.831739,-74.24246,SingleFamily,2015,439814,1950,NA,1900,3,4,3/15/17,600000,43078,city,Verona
41 Cedar St,7009,Cedar Grove,NJ,Essex,40.84982,-74.227413,SingleFamily,NA,NA,1924,6098,NA,2,4,NA,NA,14839,city,Cedar Grove
66 W Passaic Ave,7003,Bloomfield,NJ,Essex,40.834493,-74.177884,SingleFamily,2016,279614,1934,3920,1400,2,3,3/15/17,310000,3699,city,Bloomfield
49 Winchester Rd,7039,Livingston,NJ,Essex,40.781258,-74.324908,SingleFamily,2015,463926,1941,9583,1548,2,3,3/15/17,490000,56428,city,Livingston
135 Sylvan Rd,7003,Bloomfield,NJ,Essex,40.836531,-74.175068,SingleFamily,2015,329481,1929,3920,NA,3,3,3/15/17,395000,3699,city,Bloomfield
60 Westland Rd,7009,Cedar Grove,NJ,Essex,40.836223,-74.232164,SingleFamily,2015,399959,1951,8712,1774,1,3,3/15/17,455000,14839,city,Cedar Grove
168 Maple St,7052,West Orange,NJ,Essex,40.795872,-74.234162,SingleFamily,2015,234520,1928,5001,1263,NA,NA,3/15/17,180000,16216,city,West Orange
42 Main Ter,7003,Bloomfield,NJ,Essex,40.816985,-74.181154,SingleFamily,2015,351439,1929,3920,1890,3,4,3/15/17,445000,3699,city,Bloomfield
24 Holmehill Ln,7068,Roseland,NJ,Essex,40.811355,-74.284851,VacantResidentialLand,2015,439064,1956,57934,1680,NA,NA,3/15/17,530000,50223,city,Roseland
5 John St,7004,Fairfield,NJ,Essex,40.88691,-74.289623,SingleFamily,2015,684622,1996,15246,3600,4,4,3/15/17,725000,51976,city,Fairfield
32 Craig Pl,7110,Nutley,NJ,Essex,40.813688,-74.182011,SingleFamily,2015,316858,1945,5201,1494,3,4,3/15/17,372000,13056,city,Nutley
118 Summit St,7017,East Orange,NJ,Essex,40.768208,-74.212297,Mobile,2016,173464,1925,4356,1698,1,2,3/14/17,245000,51806,city,East Orange
1 North Ter,7040,Maplewood,NJ,Essex,40.734587,-74.265964,SingleFamily,2015,403910,1920,7840,1752,3,4,3/14/17,620000,39616,city,Maplewood
891 Hunterdon St,7112,Newark,NJ,Essex,40.712777,-74.203544,MultiFamily2To4,2015,246089,2006,2613,NA,5,6,3/14/17,298000,275941,neighborhood,Weequahic
831 Mount Prospect Ave,7104,Newark,NJ,Essex,40.780599,-74.162852,SingleFamily,2015,81921,1927,871,1446,NA,3,3/14/17,100500,273753,neighborhood,Forest Hill
686 Broad St,7003,Bloomfield,NJ,Essex,40.816269,-74.194536,SingleFamily,2015,257617,1950,6878,1476,1,3,3/14/17,270000,3699,city,Bloomfield
72 Dodd St,7110,Nutley,NJ,Essex,40.823947,-74.1529,SingleFamily,2015,280851,1947,5720,1032,NA,NA,3/14/17,350000,13056,city,Nutley
71 Ellington St,7017,East Orange,NJ,Essex,40.768245,-74.191781,MultiFamily2To4,2016,214247,NA,NA,NA,3,5,3/13/17,95000,30215,neighborhood,Ampere
24 Poinier St,7114,Newark,NJ,Essex,40.719638,-74.188026,MultiFamily2To4,2015,359409,2013,3750,4358,6,8,3/13/17,455000,275415,neighborhood,South Broad Street
11 Coeyman St,7104,Newark,NJ,Essex,40.780325,-74.161381,MultiFamily2To4,2015,288679,1928,4356,NA,4,8,3/13/17,365000,273753,neighborhood,Forest Hill
333 Wyoming Ave,7041,Millburn,NJ,Essex,40.733098,-74.288549,SingleFamily,2015,1098501,1924,16552,NA,4,5,8/13/99,561000,36150,city,Millburn
320 William St,7017,East Orange,NJ,Essex,40.763913,-74.208216,MultiFamily2To4,2015,221802,NA,3920,NA,3,7,3/13/17,210000,51806,city,East Orange
4 Creighton Dr,7039,Livingston,NJ,Essex,40.775521,-74.350509,SingleFamily,2015,927005,1964,40890,1,5,5,3/17/17,1328500,56428,city,Livingston
22 Welland Ave,7111,Irvington,NJ,Essex,40.716908,-74.228212,MultiFamily2To4,2015,156247,1926,3049,NA,2,3,6/10/14,67000,12067,city,Irvington
27 Wilson Pl,7111,Irvington,NJ,Essex,40.724041,-74.240073,MultiFamily2To4,2015,191757,1963,3484,2616,2,6,3/13/17,100100,12067,city,Irvington
11 Howard Pl APT 3,7109,Belleville,NJ,Essex,40.783809,-74.154436,MultiFamily2To4,NA,NA,NA,NA,NA,1,3,NA,NA,37362,city,Belleville
70 Kenwood Pl,7018,East Orange,NJ,Essex,40.756479,-74.230992,SingleFamily,2015,211457,1925,6969,1698,2,3,3/13/17,225000,51806,city,East Orange
27 Roosevelt Rd,7040,Maplewood,NJ,Essex,40.735608,-74.283017,SingleFamily,2015,757832,1916,14810,2838,4,6,3/13/17,1080000,39616,city,Maplewood
205 N Clinton St,7017,East Orange,NJ,Essex,40.769838,-74.209288,MultiFamily5Plus,2015,251947,1910,3300,2899,1,2,3/13/17,292000,51722,neighborhood,Doddtown
551 Cary St,7050,Orange,NJ,Essex,40.771752,-74.240925,SingleFamily,2015,138898,1920,3049,976,2,2,3/13/17,67000,53733,city,Orange
20 Union Ave,7040,Maplewood,NJ,Essex,40.73588,-74.251744,SingleFamily,2015,331926,1920,5000,1848,3,5,3/13/17,449000,39616,city,Maplewood
25 Lyons Ave,7068,Roseland,NJ,Essex,40.818714,-74.295515,SingleFamily,2015,434189,1933,15037,1478,NA,NA,3/13/17,140000,50223,city,Roseland
164 Little Falls Rd,7004,Fairfield,NJ,Essex,40.885902,-74.264681,SingleFamily,2015,301562,1974,17698,2294,3,4,3/13/17,412000,51976,city,Fairfield
5 Montgomery St UNIT B11,7109,Belleville,NJ,Essex,40.793472,-74.179553,Condominium,2015,151259,NA,283140,NA,NA,NA,3/13/17,145000,37362,city,Belleville
89 Sunset Ave,7044,Verona,NJ,Essex,40.82285,-74.234746,SingleFamily,2015,1007427,2002,20037,3800,3,5,3/13/17,999999,43078,city,Verona
12 Faber Pl,7110,Nutley,NJ,Essex,40.821566,-74.17426,SingleFamily,2015,342717,1960,NA,NA,2,4,3/13/17,382500,13056,city,Nutley
219 Big Piece Rd,7004,Fairfield,NJ,Essex,40.887027,-74.311119,SingleFamily,2015,469364,2001,23958,2328,3,4,3/13/17,535000,51976,city,Fairfield
37 Gerdes Ave,7044,Verona,NJ,Essex,40.824793,-74.254628,SingleFamily,2015,334959,1950,8712,2200,3,4,3/13/17,670000,43078,city,Verona
77 Yantecaw Ave,7003,Bloomfield,NJ,Essex,40.826225,-74.192197,SingleFamily,2015,311200,1924,3920,1203,2,3,3/13/17,330000,3699,city,Bloomfield
14 Fells Manor Rd # C0014,7006,Caldwell,NJ,Essex,40.834945,-74.26651,Condominium,2015,426091,1985,NA,NA,3,3,2/22/00,287000,23907,city,Caldwell
104 Continental Ave,7109,Belleville,NJ,Essex,40.800568,-74.174941,SingleFamily,2016,261890,1942,4791,1119,2,2,3/13/17,285000,37362,city,Belleville
34 Lincoln Ter,7109,Belleville,NJ,Essex,40.787482,-74.154339,MultiFamily2To4,2015,336050,1922,3920,2672,2,6,3/3/17,335000,37362,city,Belleville
327 Grove St,7042,Montclair,NJ,Essex,40.827998,-74.19822,SingleFamily,2015,416393,NA,8712,NA,4,5,3/13/17,710000,39839,city,Montclair
47 4th St,7107,Newark,NJ,Essex,40.748664,-74.190551,SingleFamily,2015,202955,2001,3484,2694,3,6,3/29/17,279000,273684,neighborhood,Fairmuont
77 Mount Prospect Ave,7104,Newark,NJ,Essex,40.754017,-74.176971,MultiFamily2To4,2015,168296,1887,2500,2529,4,4,12/7/16,87770,275335,neighborhood,Seventh Avenue
408 Summer Ave,7104,Newark,NJ,Essex,40.765659,-74.168561,MultiFamily2To4,2016,189407,1957,2613,2700,3.5,8,12/19/16,365000,273753,neighborhood,Forest Hill
99 Summer Ave,7104,Newark,NJ,Essex,40.754096,-74.173137,MultiFamily2To4,2015,129835,1930,2496,2772,NA,NA,4/5/17,170000,275335,neighborhood,Seventh Avenue
43 N 12th St,7107,Newark,NJ,Essex,40.757622,-74.19365,MultiFamily2To4,2015,206758,1999,3101,2670,3,5,10/24/07,360000,274372,neighborhood,Lower Roseville
12 Edwin Pl,7112,Newark,NJ,Essex,40.715132,-74.215614,SingleFamily,2015,146676,1927,2518,1976,2,5,8/20/16,150000,275941,neighborhood,Weequahic
63 N 5th St,7107,Newark,NJ,Essex,40.749921,-74.190664,MultiFamily2To4,2016,156747,1900,3484,2512,2,4,2/24/16,15000,273684,neighborhood,Fairmuont
44 N 7th St,7107,Newark,NJ,Essex,40.751052,-74.19255,Townhouse,2015,135159,1952,2012,2156,3,6,6/18/10,56000,273684,neighborhood,Fairmuont
49 Norwood St,7106,Newark,NJ,Essex,40.744723,-74.22868,MultiFamily2To4,2015,181117,1904,3049,2982,3,9,1/13/17,178000,275833,neighborhood,Upper Vailsburg
68 Davenport Ave,7107,Newark,NJ,Essex,40.773382,-74.182102,SingleFamily,2015,154824,1908,2500,1728,NA,NA,1/18/17,210000,275830,neighborhood,Upper Roseville
93 Astor St,7114,Newark,NJ,Essex,40.721628,-74.181031,MultiFamily2To4,2015,208387,1962,2500,3286,4,8,2/15/17,300000,275415,neighborhood,South Broad Street
293 Leslie St,7112,Newark,NJ,Essex,40.713962,-74.220518,MultiFamily2To4,2015,165037,1925,3001,2700,2,4,4/14/17,208500,275941,neighborhood,Weequahic
4 Little St,7107,Newark,NJ,Essex,40.76743,-74.19016,MultiFamily2To4,2015,223490,1969,3049,2448,2,4,3/1/17,250000,275830,neighborhood,Upper Roseville
101 Houston St,7105,Newark,NJ,Essex,40.723074,-74.152258,MultiFamily2To4,2015,240331,1853,3920,2649,3,8,9/26/16,321000,274724,neighborhood,North Ironbound
286 Leslie St,7112,Newark,NJ,Essex,40.713894,-74.219937,MultiFamily2To4,2016,254834,2006,2500,2546,4.5,6,8/29/16,120000,275941,neighborhood,Weequahic
863 S 18th St,7108,Newark,NJ,Essex,40.726168,-74.214185,MultiFamily2To4,2015,156780,1918,2613,2543,3,5,3/6/17,250000,276619,neighborhood,Upper Clinton Hill
787 S 13th St,7108,Newark,NJ,Essex,40.72656,-74.209163,MultiFamily2To4,2016,156854,NA,2613,NA,4,7,3/7/17,320000,276619,neighborhood,Upper Clinton Hill
76 Carolina Ave,7106,Newark,NJ,Essex,40.739429,-74.224575,SingleFamily,2016,125269,1952,3746,1297,1,3,3/6/17,229000,275833,neighborhood,Upper Vailsburg
216 N 9th St,7107,Newark,NJ,Essex,40.763356,-74.189127,Townhouse,2016,68758,1952,3049,3096,1,3,4/1/16,110000,275830,neighborhood,Upper Roseville
432 Badger Ave,7112,Newark,NJ,Essex,40.711572,-74.200708,SingleFamily,2016,178126,1935,3759,2242,1,3,3/3/17,70000,275941,neighborhood,Weequahic
129 Scheerer Ave,7112,Newark,NJ,Essex,40.711266,-74.207121,SingleFamily,2016,150945,1992,2500,1748,1,3,11/7/16,175000,275941,neighborhood,Weequahic
172 South St,7114,Newark,NJ,Essex,40.722119,-74.171038,MultiFamily2To4,2015,191221,2000,4770,1960,2,6,9/2/16,290000,275443,neighborhood,South Ironbound
63 N 5th St,7107,Newark,NJ,Essex,40.749921,-74.190664,MultiFamily2To4,2016,156747,1900,3484,2512,2,4,2/24/16,15000,273684,neighborhood,Fairmuont
122 Harper Ave,7111,Irvington,NJ,Essex,40.714908,-74.245954,MultiFamily2To4,2015,147281,1945,4356,1408,2,4,3/9/17,40000,12067,city,Irvington
40 Goble St,7114,Newark,NJ,Essex,40.720249,-74.174163,MultiFamily2To4,2015,370057,2004,3484,NA,4,6,1/26/05,490000,275443,neighborhood,South Ironbound
271 N 6th St,7107,Newark,NJ,Essex,40.757817,-74.18714,SingleFamily,2016,23421,1912,2613,3369,3,4,3/9/17,270000,274372,neighborhood,Lower Roseville
115 Rynda Rd,7079,South Orange,NJ,Essex,40.746445,-74.26854,SingleFamily,2015,518879,1921,8799,2602,3,5,12/9/16,620000,34059,city,South Orange
1 Rodman Pl,7052,West Orange,NJ,Essex,40.773019,-74.278307,SingleFamily,2015,308682,1950,7501,1547,3,3,3/9/17,305000,16216,city,West Orange
640 N 5th St,7107,Newark,NJ,Essex,40.770401,-74.180222,MultiFamily2To4,2015,196870,1910,2613,NA,3,5,3/9/17,230000,275830,neighborhood,Upper Roseville
73 Webster St,7111,Irvington,NJ,Essex,40.71237,-74.238109,SingleFamily,2015,163698,1940,3920,1740,2,4,3/9/17,65500,12067,city,Irvington
183 Linden Ave,7111,Irvington,NJ,Essex,40.732639,-74.22547,MultiFamily2To4,2015,190825,1925,NA,2300,2,5,3/9/17,75000,12067,city,Irvington
19 Northfield Ct,7039,Livingston,NJ,Essex,40.773437,-74.310147,SingleFamily,2015,530352,1960,12196,2160,3,4,3/9/17,635000,56428,city,Livingston
193 N 7TH St,7107,NEWARK,NJ,Essex,40.756145,-74.189032,MultiFamily2To4,2016,18801,2016,2178,NA,3,5,10/29/15,17000,274372,neighborhood,Lower Roseville
49 Woodland Ave,7044,Verona,NJ,Essex,40.833689,-74.231205,SingleFamily,2015,398249,1951,8398,1680,2,3,3/9/17,399000,43078,city,Verona
103 Sylvan Rd,7003,Bloomfield,NJ,Essex,40.836342,-74.176492,SingleFamily,2015,329376,1928,3999,1339,2,3,3/9/17,365000,3699,city,Bloomfield
32 Alcott Dr,7039,Livingston,NJ,Essex,40.811095,-74.316093,SingleFamily,2015,449730,1953,9147,1586,4,4,2/4/17,850000,56428,city,Livingston
29 Evergreen Dr,7006,North Caldwell,NJ,Essex,40.868971,-74.257927,SingleFamily,2015,525837,1950,22194,2226,NA,NA,3/9/17,400000,40043,city,North Caldwell
50 Label St,7042,Montclair,NJ,Essex,40.817163,-74.208648,MultiFamily2To4,2015,379574,1917,3032,1940,2,4,3/6/17,453000,39839,city,Montclair
21 Nolton St,7109,Belleville,NJ,Essex,40.799977,-74.160006,SingleFamily,2015,257945,1947,4356,1400,2,3,3/9/17,299000,37362,city,Belleville
32 Linden Ave,7042,Montclair,NJ,Essex,40.79556,-74.216563,SingleFamily,2016,245931,1930,6969,1428,2,3,2/16/16,399000,39839,city,Montclair
1 Skyline Dr,7052,West Orange,NJ,Essex,40.789922,-74.275788,SingleFamily,2015,294075,1960,16117,1580,3,4,3/9/17,376000,16216,city,West Orange
15 Fells Manor Rd # C0015,7006,Caldwell,NJ,Essex,40.834934,-74.26641,SingleFamily,2015,419779,1985,NA,2024,NA,2,3/9/17,409500,23907,city,Caldwell
5 Roosevelt Pl # C001A,7042,Montclair,NJ,Essex,40.811388,-74.217758,Condominium,2015,324813,1951,NA,NA,2,2,3/9/17,375000,39839,city,Montclair
203 Brookside Ave,7111,Irvington,NJ,Essex,40.73304,-74.22227,SingleFamily,2015,143905,1922,4055,2134,NA,NA,3/8/17,225000,12067,city,Irvington
112 Rollinson St,7052,West Orange,NJ,Essex,40.76871,-74.248862,SingleFamily,2015,225365,1915,2613,1312,2,3,3/8/17,161960,16216,city,West Orange
533 Vose Ave,7079,South Orange,NJ,Essex,40.756444,-74.251548,SingleFamily,2016,398218,1925,11761,2128,3,4,3/11/17,460000,763342,neighborhood,West Montrose
138 Hedden Ter,7108,Newark,NJ,Essex,40.717198,-74.204851,MultiFamily2To4,2015,231855,2004,2749,2558,5,7,3/8/17,335000,276619,neighborhood,Upper Clinton Hill
615 Hunterdon St,7108,Newark,NJ,Essex,40.722505,-74.199029,MultiFamily2To4,2015,160039,1892,3001,2950,2,4,3/8/17,350000,274367,neighborhood,Lower Clinton Hill
5 Tanglewood Dr,7039,Livingston,NJ,Essex,40.799839,-74.306822,SingleFamily,2015,567857,1963,13939,NA,2.5,4,3/8/17,703000,56428,city,Livingston
28 Lloyd Pl,7109,Belleville,NJ,Essex,40.791109,-74.155771,SingleFamily,2015,211308,1900,3920,1601,2,4,3/8/17,303700,37362,city,Belleville
4 Hamilton Dr S,7006,North Caldwell,NJ,Essex,40.868602,-74.264543,SingleFamily,2015,544579,1957,22625,1820,NA,NA,3/8/17,495000,40043,city,North Caldwell
248 N Fullerton Ave,7042,Montclair,NJ,Essex,40.82511,-74.208727,SingleFamily,2015,304526,1922,1838,1569,2,4,3/8/17,273000,39839,city,Montclair
218 Broad St APT 5B,7003,Bloomfield,NJ,Essex,40.801297,-74.196429,Condominium,2015,117356,1973,NA,595,1,1,3/8/17,155000,3699,city,Bloomfield
170 Sunset Ave,7044,Verona,NJ,Essex,40.826155,-74.240787,SingleFamily,2015,395145,1931,12196,1254,1,2,3/8/17,360000,43078,city,Verona
26 Elmwood Ave,7109,Belleville,NJ,Essex,40.805434,-74.154422,SingleFamily,2015,301486,1940,4000,NA,2,3,3/8/17,230000,37362,city,Belleville
32 Augusta St,7111,Irvington,NJ,Essex,40.724505,-74.226874,MultiFamily2To4,2015,161602,1907,3920,NA,2,3,3/7/17,25000,12067,city,Irvington
787 S 13th St,7108,Newark,NJ,Essex,40.72656,-74.209163,MultiFamily2To4,2016,156854,NA,2613,NA,4,7,3/7/17,320000,276619,neighborhood,Upper Clinton Hill
649 Hamilton Rd,7079,South Orange,NJ,Essex,40.750433,-74.237413,SingleFamily,2015,414988,1922,10498,2302,NA,NA,3/7/17,375000,34059,city,South Orange
103 Beech St,7018,East Orange,NJ,Essex,40.759065,-74.217759,SingleFamily,2015,105006,1925,8999,2730,NA,NA,3/7/17,35000,51806,city,East Orange
28 Colgate Rd,7040,Maplewood,NJ,Essex,40.722105,-74.264565,SingleFamily,2015,537992,1927,6098,2113,2,4,3/7/17,390000,39616,city,Maplewood
98 Wright St,7114,Newark,NJ,Essex,40.720861,-74.183331,MultiFamily2To4,2015,279118,2004,2613,2558,5,6,3/7/17,240000,275415,neighborhood,South Broad Street
721 S 20th St,7103,Newark,NJ,Essex,40.731768,-74.213992,MultiFamily2To4,2016,160829,1907,2613,2144,2,6,3/7/17,78000,275990,neighborhood,West Side
792 Prospect St,7040,Maplewood,NJ,Essex,40.718313,-74.269448,SingleFamily,2016,225163,1931,2613,1045,2,2,3/7/17,284900,39616,city,Maplewood
59 Ampere Pkwy,7017,East Orange,NJ,Essex,40.768704,-74.193724,MultiFamily2To4,2015,212903,NA,NA,NA,3,5,3/7/17,2425000,30215,neighborhood,Ampere
153 Murray St,7114,Newark,NJ,Essex,40.72053,-74.176964,MultiFamily2To4,2016,365600,2006,3484,NA,4,6,3/7/17,465000,275443,neighborhood,South Ironbound
99 Hillcrest Rd,7040,Maplewood,NJ,Essex,40.732145,-74.244798,SingleFamily,2015,253388,1924,3484,NA,2,3,3/7/17,265000,39616,city,Maplewood
7 Colgate Rd,7040,Maplewood,NJ,Essex,40.723557,-74.264393,SingleFamily,2015,532659,1929,6098,2070,3,4,3/7/17,710000,39616,city,Maplewood
60 Randolph Pl,7079,South Orange,NJ,Essex,40.756029,-74.25073,SingleFamily,2016,333138,1969,9147,2228,3,4,3/7/17,515000,763342,neighborhood,West Montrose
72 Schuyler Ave,7112,Newark,NJ,Essex,40.715131,-74.209975,MultiFamily2To4,2015,223924,1927,3484,NA,3,7,3/7/17,105000,275941,neighborhood,Weequahic
102 Albert Ave,7105,Newark,NJ,Essex,40.737204,-74.134379,MultiFamily2To4,2015,232399,1897,2613,2826,3,6,3/7/17,190000,403176,neighborhood,Newark Airport - Port Newark
30 Yale St,7040,Maplewood,NJ,Essex,40.723369,-74.268005,SingleFamily,2015,435014,1921,7501,1759,NA,NA,3/7/17,442000,39616,city,Maplewood
281 Prospect Ave,7052,West Orange,NJ,Essex,40.801989,-74.24941,SingleFamily,2015,232257,1961,8520,1325,2,3,3/7/17,227000,16216,city,West Orange
22 Mission St,7042,Montclair,NJ,Essex,40.806711,-74.211295,MultiFamily2To4,2015,396341,NA,2613,NA,3,6,3/7/17,180250,39839,city,Montclair
178 Mount Pleasant Ave,7052,West Orange,NJ,Essex,40.782182,-74.249823,SingleFamily,2015,224440,1950,7200,1400,2,3,3/7/17,307500,16216,city,West Orange
67 Ketner St,7003,Bloomfield,NJ,Essex,40.815442,-74.181877,SingleFamily,2015,272956,1959,5000,1279,2,4,3/7/17,290000,3699,city,Bloomfield
148 Jerome Pl,7003,Bloomfield,NJ,Essex,40.791282,-74.18668,SingleFamily,2015,235974,1911,7840,1017,1,2,3/7/17,230000,3699,city,Bloomfield
1001 Cunningham Ct,7109,Belleville,NJ,Essex,40.798221,-74.172492,SingleFamily,2015,304581,2002,NA,2020,2.5,2,2/9/17,302500,37362,city,Belleville
17 Vanderberg Pl,7009,Cedar Grove,NJ,Essex,40.876082,-74.236968,SingleFamily,2015,449122,1955,10018,2200,3,3,3/7/17,504000,14839,city,Cedar Grove
1 Mount Vernon Sq,7044,Verona,NJ,Essex,40.828051,-74.228998,Condominium,2015,344602,1980,NA,1471,3,3,2/27/17,355000,43078,city,Verona
26 Snowden Pl,7028,Glen Ridge,NJ,Essex,40.798346,-74.204307,SingleFamily,2015,814758,1886,NA,NA,3,6,3/7/17,735000,42270,city,Glen Ridge
27 Virginia Ave,7042,Montclair,NJ,Essex,40.794891,-74.225467,SingleFamily,2015,292565,1948,6098,1600,2,3,3/7/17,395000,39839,city,Montclair
56 Celia Ter,7109,Belleville,NJ,Essex,40.802122,-74.172898,SingleFamily,2015,322740,1952,6534,1788,2,4,3/7/17,275000,37362,city,Belleville
204 Stephens St,7109,Belleville,NJ,Essex,40.7911,-74.147857,SingleFamily,2015,175402,1922,3920,1164,2,3,3/7/17,280000,37362,city,Belleville
98 Gates Ave,7042,Montclair,NJ,Essex,40.806287,-74.220684,SingleFamily,2015,469747,1934,10018,NA,2,4,3/7/17,675000,39839,city,Montclair
248 Belleville Ave,7109,Belleville,NJ,Essex,40.787944,-74.15997,SingleFamily,2015,189744,1827,3920,1304,2,3,3/7/17,115500,37362,city,Belleville
711 Mill St UNIT 204,7109,Belleville,NJ,Essex,40.792195,-74.179197,Townhouse,2015,155902,1940,21344,NA,2,2,3/7/17,174900,37362,city,Belleville
90 Bromley Pl,7110,Nutley,NJ,Essex,40.826194,-74.170425,SingleFamily,2015,280088,1950,5001,1452,1,3,3/7/17,251000,13056,city,Nutley
54 Musano Ct,7052,West Orange,NJ,Essex,40.793464,-74.252605,Condominium,2015,216211,1981,NA,NA,3,2,3/7/17,245000,16216,city,West Orange
50 Beachmont Ter,7006,North Caldwell,NJ,Essex,40.875046,-74.263131,SingleFamily,2015,1910737,1999,30056,7200,7,7,3/7/17,1900000,40043,city,North Caldwell
95 Ernst Ave,7003,Bloomfield,NJ,Essex,40.835291,-74.173942,SingleFamily,2015,352385,NA,NA,NA,3,3,3/7/17,340000,3699,city,Bloomfield
311 Hillside Ave,7110,Nutley,NJ,Essex,40.827734,-74.152332,SingleFamily,2015,335843,1927,5798,1776,3,3,3/7/17,395000,13056,city,Nutley
16 Mount Ararat Rd,7078,Short Hills,NJ,Essex,40.721279,-74.330781,SingleFamily,2015,651413,1948,9583,1,3,4,3/6/17,765000,13829,city,Short Hills
204 William St,7050,Orange,NJ,Essex,40.772027,-74.226022,SingleFamily,2015,144135,1884,6098,NA,2,5,3/6/17,89000,53733,city,Orange
863 S 18th St,7108,Newark,NJ,Essex,40.726168,-74.214185,MultiFamily2To4,2015,156780,1918,2613,2543,3,5,3/6/17,250000,276619,neighborhood,Upper Clinton Hill
76 Carolina Ave,7106,Newark,NJ,Essex,40.739429,-74.224575,SingleFamily,2016,125269,1952,3746,1297,1,3,3/6/17,229000,275833,neighborhood,Upper Vailsburg
43 Glenview Rd,7079,South Orange,NJ,Essex,40.750805,-74.281448,SingleFamily,2015,496110,1952,14985,2344,NA,NA,3/6/17,582000,34059,city,South Orange
269 Amherst St,7018,East Orange,NJ,Essex,40.756109,-74.222976,MultiFamily2To4,2015,186096,1930,2897,2756,2,5,3/6/17,160500,51806,city,East Orange
9 Woodhill Dr,7040,Maplewood,NJ,Essex,40.744789,-74.277917,SingleFamily,2015,717174,1937,8712,NA,4,6,3/6/17,899000,39616,city,Maplewood
202 N 16th St,7003,Bloomfield,NJ,Essex,40.773232,-74.188555,SingleFamily,2015,272011,1925,3484,1936,2,5,3/6/17,200000,3699,city,Bloomfield
49 W Lawn Rd,7039,Livingston,NJ,Essex,40.775305,-74.303688,SingleFamily,2015,571247,1940,8712,2244,3.5,4,3/6/17,665000,56428,city,Livingston
1129 Grove St,7111,Irvington,NJ,Essex,40.720836,-74.225643,SingleFamily,2015,57050,2007,3049,1720,3,3,3/6/17,115000,12067,city,Irvington
62 Arlington Ave,7104,Newark,NJ,Essex,40.766,-74.168914,MultiFamily2To4,2015,185789,1920,2613,NA,2,6,3/6/17,165000,273753,neighborhood,Forest Hill
261 S 6th St,7103,Newark,NJ,Essex,40.738874,-74.197563,MultiFamily2To4,2015,219035,1907,2365,2338,2,8,3/6/17,233500,275990,neighborhood,West Side
6 Winthrop Pl,7040,Maplewood,NJ,Essex,40.728998,-74.281848,SingleFamily,2015,610754,1916,7405,2494,3,5,3/6/17,750000,39616,city,Maplewood
69 Schley St,7112,Newark,NJ,Essex,40.718315,-74.218587,MultiFamily2To4,2015,171665,NA,NA,2100,4,7,3/6/17,195000,276619,neighborhood,Upper Clinton Hill
96 Inwood Ave,7043,Montclair,NJ,Essex,40.843083,-74.194734,SingleFamily,2015,747889,1955,11761,2200,2.5,3,3/6/17,825000,39839,city,Montclair
333 Central Ave,7006,Caldwell,NJ,Essex,40.860149,-74.270492,SingleFamily,2015,538546,1971,35719,NA,2.5,4,3/6/17,390000,51976,city,Fairfield
381 Highland Ave,7043,Montclair,NJ,Essex,40.847202,-74.20952,SingleFamily,2015,1062500,1927,16988,3734,5,5,3/6/17,11999000,39839,city,Montclair
29 Saint Marys Pl,7110,Nutley,NJ,Essex,40.807664,-74.149354,MultiFamily2To4,2015,345008,1950,6534,NA,3,4,3/6/17,370000,13056,city,Nutley
9 Beech St,7109,Belleville,NJ,Essex,40.798419,-74.15043,SingleFamily,2015,289105,1897,5001,2613,3,4,3/6/17,265000,37362,city,Belleville
13 Myrtle Ave,7109,Belleville,NJ,Essex,40.804185,-74.154062,SingleFamily,2015,275588,1929,5227,NA,2,4,3/6/17,285000,37362,city,Belleville
234 Claremont Ave # C3405,7042,Montclair,NJ,Essex,40.817684,-74.217813,Condominium,2015,277087,1986,34243,936,1,2,2/27/17,335000,39839,city,Montclair
158 Broughton Ave,7003,Bloomfield,NJ,Essex,40.815754,-74.18606,SingleFamily,2015,223366,1924,2962,992,1,2,3/6/17,210000,3699,city,Bloomfield
48 Little St,7109,Belleville,NJ,Essex,40.796094,-74.143323,SingleFamily,2016,231464,1902,3484,2024,3,5,3/6/17,260000,37362,city,Belleville
222 Cerrutti Ct,7052,West Orange,NJ,Essex,40.792172,-74.250818,Condominium,2015,323081,1987,NA,NA,3,3,3/6/17,328000,16216,city,West Orange
67 Pease Ave,7044,Verona,NJ,Essex,40.829567,-74.252851,SingleFamily,2015,426513,1916,13503,NA,2,3,3/6/17,480800,43078,city,Verona
13 Carlos Dr,7004,Fairfield,NJ,Essex,40.88445,-74.263643,SingleFamily,2015,405386,1949,21780,NA,3,4,3/6/17,300000,51976,city,Fairfield
20 Beasley St,7052,West Orange,NJ,Essex,40.80861,-74.25965,SingleFamily,2015,289035,1953,10093,1499,NA,NA,3/6/17,212000,16216,city,West Orange
29 Prospect Pl,7109,Belleville,NJ,Essex,40.787769,-74.156378,SingleFamily,2016,201038,1927,2613,1305,2,3,3/6/17,269000,37362,city,Belleville
292 Broughton Ave,7003,Bloomfield,NJ,Essex,40.819469,-74.181602,SingleFamily,2015,248687,1950,5227,1224,1,3,3/6/17,259900,3699,city,Bloomfield
138 Bremond St,7109,Belleville,NJ,Essex,40.802832,-74.149938,SingleFamily,2016,222014,1939,3920,NA,1,3,3/6/17,259000,37362,city,Belleville
11 Howe Ave,7110,Nutley,NJ,Essex,40.82418,-74.140996,SingleFamily,2015,735516,1980,7405,4600,4,4,3/6/17,525000,13056,city,Nutley
29 Enfield Ave,7042,Montclair,NJ,Essex,40.793934,-74.222684,SingleFamily,2015,280253,1923,4791,1496,2,3,3/6/17,410000,39839,city,Montclair
235 Grove Ave,7044,Verona,NJ,Essex,40.843219,-74.238339,SingleFamily,2015,374197,1950,8712,1820,3,4,3/6/17,343000,43078,city,Verona
5 Enclosure St,7110,Nutley,NJ,Essex,40.818793,-74.153579,SingleFamily,2015,457065,1888,NA,NA,2,4,3/6/17,314000,13056,city,Nutley
59 Virginia Ave,7042,Montclair,NJ,Essex,40.795649,-74.227574,SingleFamily,2015,238508,1940,3484,1144,3,4,3/6/17,299000,39839,city,Montclair
432 Badger Ave,7112,Newark,NJ,Essex,40.711572,-74.200708,SingleFamily,2016,178126,1935,3759,2242,1,3,3/3/17,70000,275941,neighborhood,Weequahic
13 Orchard St,7041,Millburn,NJ,Essex,40.716766,-74.311076,SingleFamily,2015,608969,1926,5227,2644,1,3,3/3/17,649000,36150,city,Millburn
50 Kensington Ter,7040,Maplewood,NJ,Essex,40.731742,-74.268759,SingleFamily,2015,397134,1913,6098,1427,2,3,3/3/17,600000,39616,city,Maplewood
9 Montrose Ter,7111,Irvington,NJ,Essex,40.736585,-74.215402,MultiFamily2To4,2015,70206,1912,2613,NA,2,4,2/27/17,165000,12067,city,Irvington
7 Park Cir,7078,Short Hills,NJ,Essex,40.736347,-74.314021,SingleFamily,2015,1631164,1936,12632,5514,5,5,3/3/17,1780000,13829,city,Short Hills
42 Val Sumo Ln,7105,Newark,NJ,Essex,40.729494,-74.148509,SingleFamily,2015,231747,2004,871,1754,NA,NA,3/3/17,240000,274724,neighborhood,North Ironbound
47 4th St,7107,Newark,NJ,Essex,40.748664,-74.190551,SingleFamily,2015,202955,2001,3484,2694,3,6,3/29/17,279000,273684,neighborhood,Fairmuont
77 Mount Prospect Ave,7104,Newark,NJ,Essex,40.754017,-74.176971,MultiFamily2To4,2015,168296,1887,2500,2529,4,4,12/7/16,87770,275335,neighborhood,Seventh Avenue
408 Summer Ave,7104,Newark,NJ,Essex,40.765659,-74.168561,MultiFamily2To4,2016,189407,1957,2613,2700,3.5,8,12/19/16,365000,273753,neighborhood,Forest Hill
99 Summer Ave,7104,Newark,NJ,Essex,40.754096,-74.173137,MultiFamily2To4,2015,129835,1930,2496,2772,NA,NA,4/5/17,170000,275335,neighborhood,Seventh Avenue
43 N 12th St,7107,Newark,NJ,Essex,40.757622,-74.19365,MultiFamily2To4,2015,206758,1999,3101,2670,3,5,10/24/07,360000,274372,neighborhood,Lower Roseville
12 Edwin Pl,7112,Newark,NJ,Essex,40.715132,-74.215614,SingleFamily,2015,146676,1927,2518,1976,2,5,8/20/16,150000,275941,neighborhood,Weequahic
63 N 5th St,7107,Newark,NJ,Essex,40.749921,-74.190664,MultiFamily2To4,2016,156747,1900,3484,2512,2,4,2/24/16,15000,273684,neighborhood,Fairmuont
44 N 7th St,7107,Newark,NJ,Essex,40.751052,-74.19255,Townhouse,2015,135159,1952,2012,2156,3,6,6/18/10,56000,273684,neighborhood,Fairmuont
49 Norwood St,7106,Newark,NJ,Essex,40.744723,-74.22868,MultiFamily2To4,2015,181117,1904,3049,2982,3,9,1/13/17,178000,275833,neighborhood,Upper Vailsburg
68 Davenport Ave,7107,Newark,NJ,Essex,40.773382,-74.182102,SingleFamily,2015,154824,1908,2500,1728,NA,NA,1/18/17,210000,275830,neighborhood,Upper Roseville
93 Astor St,7114,Newark,NJ,Essex,40.721628,-74.181031,MultiFamily2To4,2015,208387,1962,2500,3286,4,8,2/15/17,300000,275415,neighborhood,South Broad Street
293 Leslie St,7112,Newark,NJ,Essex,40.713962,-74.220518,MultiFamily2To4,2015,165037,1925,3001,2700,2,4,4/14/17,208500,275941,neighborhood,Weequahic
4 Little St,7107,Newark,NJ,Essex,40.76743,-74.19016,MultiFamily2To4,2015,223490,1969,3049,2448,2,4,3/1/17,250000,275830,neighborhood,Upper Roseville
101 Houston St,7105,Newark,NJ,Essex,40.723074,-74.152258,MultiFamily2To4,2015,240331,1853,3920,2649,3,8,9/26/16,321000,274724,neighborhood,North Ironbound
286 Leslie St,7112,Newark,NJ,Essex,40.713894,-74.219937,MultiFamily2To4,2016,254834,2006,2500,2546,4.5,6,8/29/16,120000,275941,neighborhood,Weequahic
863 S 18th St,7108,Newark,NJ,Essex,40.726168,-74.214185,MultiFamily2To4,2015,156780,1918,2613,2543,3,5,3/6/17,250000,276619,neighborhood,Upper Clinton Hill
787 S 13th St,7108,Newark,NJ,Essex,40.72656,-74.209163,MultiFamily2To4,2016,156854,NA,2613,NA,4,7,3/7/17,320000,276619,neighborhood,Upper Clinton Hill
76 Carolina Ave,7106,Newark,NJ,Essex,40.739429,-74.224575,SingleFamily,2016,125269,1952,3746,1297,1,3,3/6/17,229000,275833,neighborhood,Upper Vailsburg
216 N 9th St,7107,Newark,NJ,Essex,40.763356,-74.189127,Townhouse,2016,68758,1952,3049,3096,1,3,4/1/16,110000,275830,neighborhood,Upper Roseville
432 Badger Ave,7112,Newark,NJ,Essex,40.711572,-74.200708,SingleFamily,2016,178126,1935,3759,2242,1,3,3/3/17,70000,275941,neighborhood,Weequahic
129 Scheerer Ave,7112,Newark,NJ,Essex,40.711266,-74.207121,SingleFamily,2016,150945,1992,2500,1748,1,3,11/7/16,175000,275941,neighborhood,Weequahic
172 South St,7114,Newark,NJ,Essex,40.722119,-74.171038,MultiFamily2To4,2015,191221,2000,4770,1960,2,6,9/2/16,290000,275443,neighborhood,South Ironbound